[
  {
    "name": "BAŞIBÜYÜK CD.",
    "longitude": "40.956582",
    "latitude": "29.145723",
    "population": 660,
    "rate_of_population": 4,
    "demand": 2
  },
  {
    "name": "EMEK CD.",
    "longitude": "40.942913",
    "latitude": "29.164147",
    "population": 459,
    "rate_of_population": 1,
    "demand": 85
  },
  {
    "name": "ESER CD.",
    "longitude": "40.955601",
    "latitude": "29.150169",
    "population": 858,
    "rate_of_population": 3,
    "demand": 26
  },
  {
    "name": "ESKİCİBAĞ CD.",
    "longitude": "40.958938",
    "latitude": "29.152685",
    "population": 240,
    "rate_of_population": 1,
    "demand": 96
  },
  {
    "name": "GÜRLER CD.",
    "longitude": "40.957883",
    "latitude": "29.148795",
    "population": 213,
    "rate_of_population": 3,
    "demand": 17
  },
  {
    "name": "KARANFİL CD.",
    "longitude": "40.954144",
    "latitude": "29.147340",
    "population": 317,
    "rate_of_population": 1,
    "demand": 76
  },
  {
    "name": "MEZARLIK CD.",
    "longitude": "40.958823",
    "latitude": "29.144231",
    "population": 314,
    "rate_of_population": 1,
    "demand": 75
  },
  {
    "name": "TEKKE CD.",
    "longitude": "40.960716",
    "latitude": "29.147393",
    "population": 418,
    "rate_of_population": 5,
    "demand": 16
  },
  {
    "name": "TRAFO CD.",
    "longitude": "40.955792",
    "latitude": "29.151786",
    "population": 865,
    "rate_of_population": 4,
    "demand": 98
  },
  {
    "name": "ACAR SK.",
    "longitude": "40.957522",
    "latitude": "29.148400",
    "population": 445,
    "rate_of_population": 1,
    "demand": 92
  },
  {
    "name": "AKÇAN SK.",
    "longitude": "40.958074",
    "latitude": "29.145525",
    "population": 519,
    "rate_of_population": 4,
    "demand": 30
  },
  {
    "name": "ASLANOĞLU SK.",
    "longitude": "40.956603",
    "latitude": "29.149945",
    "population": 229,
    "rate_of_population": 4,
    "demand": 86
  },
  {
    "name": "AY SK.",
    "longitude": "40.958516",
    "latitude": "29.153439",
    "population": 144,
    "rate_of_population": 2,
    "demand": 69
  },
  {
    "name": "AYDIN SK.",
    "longitude": "40.958114",
    "latitude": "29.154113",
    "population": 358,
    "rate_of_population": 4,
    "demand": 71
  },
  {
    "name": "AYGÜL SK.",
    "longitude": "40.959204",
    "latitude": "29.152217",
    "population": 670,
    "rate_of_population": 1,
    "demand": 67
  },
  {
    "name": "BAHÇE SK.",
    "longitude": "40.956208",
    "latitude": "29.144267",
    "population": 263,
    "rate_of_population": 1,
    "demand": 45
  },
  {
    "name": "BARAJ SK.",
    "longitude": "40.952666",
    "latitude": "29.152011",
    "population": 633,
    "rate_of_population": 1,
    "demand": 12
  },
  {
    "name": "BAYIR SK.",
    "longitude": "40.957903",
    "latitude": "29.154598",
    "population": 703,
    "rate_of_population": 3,
    "demand": 83
  },
  {
    "name": "BEYZADE SK.",
    "longitude": "40.954873",
    "latitude": "29.174478",
    "population": 317,
    "rate_of_population": 1,
    "demand": 80
  },
  {
    "name": "BUSE SK.",
    "longitude": "40.955561",
    "latitude": "29.174217",
    "population": 217,
    "rate_of_population": 5,
    "demand": 76
  },
  {
    "name": "CAMİALTI SK.",
    "longitude": "40.958339",
    "latitude": "29.146962",
    "population": 709,
    "rate_of_population": 5,
    "demand": 41
  },
  {
    "name": "ÇAKIR SK.",
    "longitude": "40.959388",
    "latitude": "29.155999",
    "population": 133,
    "rate_of_population": 4,
    "demand": 87
  },
  {
    "name": "ÇALIKUŞU SK.",
    "longitude": "40.954737",
    "latitude": "29.149774",
    "population": 158,
    "rate_of_population": 3,
    "demand": 31
  },
  {
    "name": "ÇAMLIK SK.",
    "longitude": "40.954382",
    "latitude": "29.146630",
    "population": 924,
    "rate_of_population": 4,
    "demand": 55
  },
  {
    "name": "ÇİĞDEM SK.",
    "longitude": "40.961744",
    "latitude": "29.145040",
    "population": 611,
    "rate_of_population": 4,
    "demand": 19
  },
  {
    "name": "DAĞLAR SK.",
    "longitude": "40.956398",
    "latitude": "29.147070",
    "population": 507,
    "rate_of_population": 3,
    "demand": 5
  },
  {
    "name": "DİK SK.",
    "longitude": "40.958353",
    "latitude": "29.152397",
    "population": 115,
    "rate_of_population": 3,
    "demand": 34
  },
  {
    "name": "DÜŞ SK.",
    "longitude": "40.955302",
    "latitude": "29.154319",
    "population": 643,
    "rate_of_population": 1,
    "demand": 15
  },
  {
    "name": "ELİF SK.",
    "longitude": "40.960307",
    "latitude": "29.145588",
    "population": 907,
    "rate_of_population": 5,
    "demand": 40
  },
  {
    "name": "EMEL SK.",
    "longitude": "40.987180",
    "latitude": "29.123849",
    "population": 672,
    "rate_of_population": 5,
    "demand": 21
  },
  {
    "name": "ENGİN SK.",
    "longitude": "40.957583",
    "latitude": "29.150035",
    "population": 845,
    "rate_of_population": 1,
    "demand": 4
  },
  {
    "name": "EREN SK.",
    "longitude": "40.955601",
    "latitude": "29.150169",
    "population": 835,
    "rate_of_population": 5,
    "demand": 100
  },
  {
    "name": "ERİK SK.",
    "longitude": "40.957079",
    "latitude": "29.145768",
    "population": 167,
    "rate_of_population": 5,
    "demand": 54
  },
  {
    "name": "ERKAM SK.",
    "longitude": "40.959218",
    "latitude": "29.150277",
    "population": 118,
    "rate_of_population": 1,
    "demand": 59
  },
  {
    "name": "ERKAN SK.",
    "longitude": "40.957753",
    "latitude": "29.151463",
    "population": 619,
    "rate_of_population": 1,
    "demand": 63
  },
  {
    "name": "FAL SK.",
    "longitude": "40.954042",
    "latitude": "29.170256",
    "population": 347,
    "rate_of_population": 5,
    "demand": 99
  },
  {
    "name": "FIRIN SK.",
    "longitude": "40.954464",
    "latitude": "29.145552",
    "population": 386,
    "rate_of_population": 5,
    "demand": 4
  },
  {
    "name": "FİDAN SK.",
    "longitude": "40.956548",
    "latitude": "29.143935",
    "population": 998,
    "rate_of_population": 2,
    "demand": 100
  },
  {
    "name": "FİLİZ SK.",
    "longitude": "40.956412",
    "latitude": "29.144519",
    "population": 958,
    "rate_of_population": 5,
    "demand": 97
  },
  {
    "name": "GAZEL SK.",
    "longitude": "40.960307",
    "latitude": "29.145588",
    "population": 323,
    "rate_of_population": 3,
    "demand": 9
  },
  {
    "name": "GÖKSEL SK.",
    "longitude": "40.957086",
    "latitude": "29.147627",
    "population": 921,
    "rate_of_population": 3,
    "demand": 86
  },
  {
    "name": "GÖZDE SK.",
    "longitude": "40.959885",
    "latitude": "29.144950",
    "population": 826,
    "rate_of_population": 4,
    "demand": 51
  },
  {
    "name": "GÜL SK.",
    "longitude": "40.956929",
    "latitude": "29.150789",
    "population": 182,
    "rate_of_population": 1,
    "demand": 78
  },
  {
    "name": "GÜNER SK.",
    "longitude": "40.957604",
    "latitude": "29.151202",
    "population": 674,
    "rate_of_population": 1,
    "demand": 68
  },
  {
    "name": "GÜNEŞ SK.",
    "longitude": "40.956773",
    "latitude": "29.151598",
    "population": 950,
    "rate_of_population": 2,
    "demand": 62
  },
  {
    "name": "HACİVAT SK.",
    "longitude": "40.957038",
    "latitude": "29.154454",
    "population": 368,
    "rate_of_population": 5,
    "demand": 53
  },
  {
    "name": "HALİT BEY SK.",
    "longitude": "40.954382",
    "latitude": "29.146630",
    "population": 916,
    "rate_of_population": 1,
    "demand": 79
  },
  {
    "name": "HANDAN SK.",
    "longitude": "40.960130",
    "latitude": "29.172654",
    "population": 420,
    "rate_of_population": 4,
    "demand": 48
  },
  {
    "name": "HASTANE ARKASI SK.",
    "longitude": "40.953470",
    "latitude": "29.143953",
    "population": 313,
    "rate_of_population": 4,
    "demand": 65
  },
  {
    "name": "HERCAİ SK.",
    "longitude": "40.955343",
    "latitude": "29.172430",
    "population": 773,
    "rate_of_population": 5,
    "demand": 89
  },
  {
    "name": "HİLAL SK.",
    "longitude": "40.954042",
    "latitude": "29.170256",
    "population": 442,
    "rate_of_population": 4,
    "demand": 39
  },
  {
    "name": "KARAMAN SK.",
    "longitude": "40.953872",
    "latitude": "29.145983",
    "population": 883,
    "rate_of_population": 2,
    "demand": 85
  },
  {
    "name": "KARTAL SK.",
    "longitude": "40.961710",
    "latitude": "29.146055",
    "population": 624,
    "rate_of_population": 2,
    "demand": 98
  },
  {
    "name": "KAYA SK.",
    "longitude": "40.956855",
    "latitude": "29.147241",
    "population": 634,
    "rate_of_population": 4,
    "demand": 84
  },
  {
    "name": "KAYSUK SK.",
    "longitude": "40.957038",
    "latitude": "29.147034",
    "population": 610,
    "rate_of_population": 3,
    "demand": 8
  },
  {
    "name": "KEHRİBAR SK.",
    "longitude": "40.955806",
    "latitude": "29.144276",
    "population": 887,
    "rate_of_population": 5,
    "demand": 55
  },
  {
    "name": "KESKİNLER SK.",
    "longitude": "40.958938",
    "latitude": "29.150511",
    "population": 765,
    "rate_of_population": 5,
    "demand": 11
  },
  {
    "name": "KETEN SK.",
    "longitude": "40.955949",
    "latitude": "29.169537",
    "population": 153,
    "rate_of_population": 1,
    "demand": 88
  },
  {
    "name": "KILIÇ SK.",
    "longitude": "40.958475",
    "latitude": "29.152577",
    "population": 777,
    "rate_of_population": 2,
    "demand": 7
  },
  {
    "name": "KORKMAZ SK.",
    "longitude": "40.953729",
    "latitude": "29.153601",
    "population": 193,
    "rate_of_population": 3,
    "demand": 56
  },
  {
    "name": "KUZGUN SK.",
    "longitude": "40.953817",
    "latitude": "29.171432",
    "population": 568,
    "rate_of_population": 2,
    "demand": 6
  },
  {
    "name": "LALE SK.",
    "longitude": "40.956487",
    "latitude": "29.144941",
    "population": 848,
    "rate_of_population": 5,
    "demand": 25
  },
  {
    "name": "MADEN SK.",
    "longitude": "40.959129",
    "latitude": "29.151454",
    "population": 880,
    "rate_of_population": 5,
    "demand": 52
  },
  {
    "name": "MAĞARA TEPE SK.",
    "longitude": "40.955261",
    "latitude": "29.153277",
    "population": 609,
    "rate_of_population": 1,
    "demand": 91
  },
  {
    "name": "MANOLYA SK.",
    "longitude": "40.959129",
    "latitude": "29.151454",
    "population": 651,
    "rate_of_population": 1,
    "demand": 80
  },
  {
    "name": "MELİKOĞLU SK.",
    "longitude": "40.955418",
    "latitude": "29.143926",
    "population": 939,
    "rate_of_population": 4,
    "demand": 42
  },
  {
    "name": "MENEKŞE ÇK. SK.",
    "longitude": "40.953483",
    "latitude": "29.151364",
    "population": 574,
    "rate_of_population": 4,
    "demand": 2
  },
  {
    "name": "MENEKŞE SK.",
    "longitude": "40.959204",
    "latitude": "29.152217",
    "population": 411,
    "rate_of_population": 3,
    "demand": 96
  },
  {
    "name": "MERVE SK.",
    "longitude": "40.957045",
    "latitude": "29.156700",
    "population": 780,
    "rate_of_population": 1,
    "demand": 44
  },
  {
    "name": "MUZAFFER SK.",
    "longitude": "40.955738",
    "latitude": "29.154544",
    "population": 200,
    "rate_of_population": 2,
    "demand": 39
  },
  {
    "name": "NİL SK.",
    "longitude": "40.952373",
    "latitude": "29.148714",
    "population": 324,
    "rate_of_population": 1,
    "demand": 81
  },
  {
    "name": "OKUL SK.",
    "longitude": "40.967627",
    "latitude": "29.122968",
    "population": 669,
    "rate_of_population": 4,
    "demand": 53
  },
  {
    "name": "ORMAN SK.",
    "longitude": "40.961254",
    "latitude": "29.147861",
    "population": 781,
    "rate_of_population": 1,
    "demand": 95
  },
  {
    "name": "ÖZEN SK.",
    "longitude": "40.959585",
    "latitude": "29.156475",
    "population": 841,
    "rate_of_population": 2,
    "demand": 34
  },
  {
    "name": "ÖZTÜRK SK.",
    "longitude": "40.960695",
    "latitude": "29.146109",
    "population": 196,
    "rate_of_population": 5,
    "demand": 82
  },
  {
    "name": "PAMUK SK.",
    "longitude": "40.954103",
    "latitude": "29.153358",
    "population": 569,
    "rate_of_population": 2,
    "demand": 41
  },
  {
    "name": "PAPATYA SK.",
    "longitude": "40.959354",
    "latitude": "29.145426",
    "population": 746,
    "rate_of_population": 2,
    "demand": 36
  },
  {
    "name": "REÇİNE SK.",
    "longitude": "40.959402",
    "latitude": "29.142740",
    "population": 878,
    "rate_of_population": 2,
    "demand": 54
  },
  {
    "name": "SELVİ SK.",
    "longitude": "40.958223",
    "latitude": "29.148939",
    "population": 684,
    "rate_of_population": 1,
    "demand": 82
  },
  {
    "name": "SERHAT SK.",
    "longitude": "40.957685",
    "latitude": "29.152846",
    "population": 420,
    "rate_of_population": 5,
    "demand": 65
  },
  {
    "name": "SERİN SK.",
    "longitude": "40.955860",
    "latitude": "29.150978",
    "population": 155,
    "rate_of_population": 2,
    "demand": 49
  },
  {
    "name": "SEZENLİK SK.",
    "longitude": "40.954471",
    "latitude": "29.145022",
    "population": 279,
    "rate_of_population": 4,
    "demand": 77
  },
  {
    "name": "SULTAN SK.",
    "longitude": "40.953742",
    "latitude": "29.170606",
    "population": 856,
    "rate_of_population": 4,
    "demand": 42
  },
  {
    "name": "ŞEN SK.",
    "longitude": "40.959313",
    "latitude": "29.153161",
    "population": 960,
    "rate_of_population": 3,
    "demand": 29
  },
  {
    "name": "TAN SK.",
    "longitude": "40.956827",
    "latitude": "29.145435",
    "population": 228,
    "rate_of_population": 2,
    "demand": 54
  },
  {
    "name": "TAŞLIK SK.",
    "longitude": "40.952898",
    "latitude": "29.150331",
    "population": 576,
    "rate_of_population": 3,
    "demand": 87
  },
  {
    "name": "TAŞOCAĞI SK.",
    "longitude": "40.952898",
    "latitude": "29.150331",
    "population": 404,
    "rate_of_population": 2,
    "demand": 4
  },
  {
    "name": "TEKKE DERESİ SK.",
    "longitude": "40.960130",
    "latitude": "29.145866",
    "population": 785,
    "rate_of_population": 5,
    "demand": 78
  },
  {
    "name": "TOPRAK YOL SK.",
    "longitude": "40.954566",
    "latitude": "29.145723",
    "population": 241,
    "rate_of_population": 5,
    "demand": 76
  },
  {
    "name": "TURGUT SK.",
    "longitude": "40.961029",
    "latitude": "29.146881",
    "population": 582,
    "rate_of_population": 5,
    "demand": 45
  },
  {
    "name": "VEYSEL SK.",
    "longitude": "40.954239",
    "latitude": "29.149981",
    "population": 657,
    "rate_of_population": 2,
    "demand": 94
  },
  {
    "name": "YARICI SK.",
    "longitude": "40.953204",
    "latitude": "29.153161",
    "population": 911,
    "rate_of_population": 3,
    "demand": 18
  },
  {
    "name": "YAZGAN SK.",
    "longitude": "40.961513",
    "latitude": "29.147322",
    "population": 924,
    "rate_of_population": 2,
    "demand": 38
  },
  {
    "name": "YENİ CAMİ SK.",
    "longitude": "40.955847",
    "latitude": "29.146307",
    "population": 646,
    "rate_of_population": 1,
    "demand": 61
  },
  {
    "name": "YILDIZ SK.",
    "longitude": "40.960525",
    "latitude": "29.145812",
    "population": 159,
    "rate_of_population": 4,
    "demand": 18
  },
  {
    "name": "YILMAZ SK.",
    "longitude": "40.954525",
    "latitude": "29.144492",
    "population": 702,
    "rate_of_population": 2,
    "demand": 23
  },
  {
    "name": "YONCA SK.",
    "longitude": "40.956650",
    "latitude": "29.144663",
    "population": 970,
    "rate_of_population": 3,
    "demand": 100
  },
  {
    "name": "ZİRVE SK.",
    "longitude": "40.955097",
    "latitude": "29.154643",
    "population": 565,
    "rate_of_population": 2,
    "demand": 38
  }
]