[
  {
    "name": "SULTAN REŞAT CD.",
    "longitude": "41.078140",
    "latitude": "29.257419",
    "population": 872,
    "rate_of_population": 1,
    "demand": 97
  },
  {
    "name": "ŞEHİT MURAT DEMİR CD.",
    "longitude": "41.081716",
    "latitude": "29.264965",
    "population": 422,
    "rate_of_population": 3,
    "demand": 13
  },
  {
    "name": "ALİ PAŞA SK.",
    "longitude": "41.079717",
    "latitude": "29.265432",
    "population": 363,
    "rate_of_population": 3,
    "demand": 7
  },
  {
    "name": "AVŞA ÇK. SK.",
    "longitude": "41.073083",
    "latitude": "29.253422",
    "population": 478,
    "rate_of_population": 4,
    "demand": 11
  },
  {
    "name": "BESTEKAR ÇK. SK.",
    "longitude": "41.078066",
    "latitude": "29.247259",
    "population": 563,
    "rate_of_population": 4,
    "demand": 72
  },
  {
    "name": "BÖĞÜRTLEN SK.",
    "longitude": "41.074911",
    "latitude": "29.256826",
    "population": 744,
    "rate_of_population": 5,
    "demand": 28
  },
  {
    "name": "CANFEDA SK.",
    "longitude": "41.076135",
    "latitude": "29.246828",
    "population": 647,
    "rate_of_population": 4,
    "demand": 82
  },
  {
    "name": "CUMHUR SK.",
    "longitude": "41.081260",
    "latitude": "29.262764",
    "population": 448,
    "rate_of_population": 4,
    "demand": 73
  },
  {
    "name": "ÇAĞLA SK.",
    "longitude": "41.085549",
    "latitude": "29.266753",
    "population": 607,
    "rate_of_population": 5,
    "demand": 65
  },
  {
    "name": "ÇIRAK ÇK. SK.",
    "longitude": "41.078705",
    "latitude": "29.248813",
    "population": 866,
    "rate_of_population": 5,
    "demand": 2
  },
  {
    "name": "ÇİFTPINAR SK.",
    "longitude": "41.083843",
    "latitude": "29.265630",
    "population": 314,
    "rate_of_population": 1,
    "demand": 32
  },
  {
    "name": "ÇİMEN SK.",
    "longitude": "",
    "latitude": "",
    "population": 494,
    "rate_of_population": 5,
    "demand": 10
  },
  {
    "name": "ÇİMENLİK SK.",
    "longitude": "41.081546",
    "latitude": "29.249253",
    "population": 715,
    "rate_of_population": 1,
    "demand": 19
  },
  {
    "name": "DAĞSU ÇK. SK.",
    "longitude": "41.083286",
    "latitude": "29.252182",
    "population": 199,
    "rate_of_population": 3,
    "demand": 39
  },
  {
    "name": "DAMLA SK.",
    "longitude": "41.077270",
    "latitude": "29.264327",
    "population": 788,
    "rate_of_population": 5,
    "demand": 16
  },
  {
    "name": "DEFNE SK.",
    "longitude": "41.078480",
    "latitude": "29.252604",
    "population": 363,
    "rate_of_population": 3,
    "demand": 93
  },
  {
    "name": "DUMANLI VADİ SK.",
    "longitude": "41.076149",
    "latitude": "29.264462",
    "population": 229,
    "rate_of_population": 5,
    "demand": 27
  },
  {
    "name": "EFLATUN SK.",
    "longitude": "41.078535",
    "latitude": "29.255694",
    "population": 484,
    "rate_of_population": 3,
    "demand": 37
  },
  {
    "name": "EMEL SK.",
    "longitude": "41.067583",
    "latitude": "29.243046",
    "population": 794,
    "rate_of_population": 1,
    "demand": 41
  },
  {
    "name": "ENİS SK.",
    "longitude": "41.083850",
    "latitude": "29.250143",
    "population": 434,
    "rate_of_population": 3,
    "demand": 49
  },
  {
    "name": "GÜLVEREN SK.",
    "longitude": "41.078168",
    "latitude": "29.255057",
    "population": 898,
    "rate_of_population": 4,
    "demand": 65
  },
  {
    "name": "GÜNEŞ SK.",
    "longitude": "41.077012",
    "latitude": "29.246891",
    "population": 431,
    "rate_of_population": 2,
    "demand": 47
  },
  {
    "name": "GÜNYÜZÜ SK.",
    "longitude": "41.074130",
    "latitude": "29.259297",
    "population": 939,
    "rate_of_population": 1,
    "demand": 99
  },
  {
    "name": "GÜZİDE SK.",
    "longitude": "41.066162",
    "latitude": "29.247870",
    "population": 642,
    "rate_of_population": 2,
    "demand": 67
  },
  {
    "name": "HACI PINAR SK.",
    "longitude": "41.077345",
    "latitude": "29.253808",
    "population": 407,
    "rate_of_population": 3,
    "demand": 86
  },
  {
    "name": "HİSAR SK.",
    "longitude": "41.077501",
    "latitude": "29.264669",
    "population": 173,
    "rate_of_population": 5,
    "demand": 99
  },
  {
    "name": "HUZUR SK.",
    "longitude": "41.069242",
    "latitude": "29.249451",
    "population": 975,
    "rate_of_population": 4,
    "demand": 80
  },
  {
    "name": "HÜRMET SK.",
    "longitude": "41.072185",
    "latitude": "29.247097",
    "population": 321,
    "rate_of_population": 1,
    "demand": 89
  },
  {
    "name": "İHSAN ÇK. SK.",
    "longitude": "41.070071",
    "latitude": "29.244995",
    "population": 913,
    "rate_of_population": 5,
    "demand": 18
  },
  {
    "name": "KESTANELİK SK.",
    "longitude": "41.067848",
    "latitude": "29.241753",
    "population": 232,
    "rate_of_population": 4,
    "demand": 85
  },
  {
    "name": "KİRAZ SK.",
    "longitude": "41.079901",
    "latitude": "29.264794",
    "population": 714,
    "rate_of_population": 1,
    "demand": 88
  },
  {
    "name": "KOCAGÖZ KUYU SK.",
    "longitude": "41.070574",
    "latitude": "29.247466",
    "population": 158,
    "rate_of_population": 1,
    "demand": 78
  },
  {
    "name": "KÖSEPINAR SK.",
    "longitude": "41.070248",
    "latitude": "29.254104",
    "population": 112,
    "rate_of_population": 4,
    "demand": 51
  },
  {
    "name": "MANDIRA SK. SK.",
    "longitude": "41.082912",
    "latitude": "29.269735",
    "population": 841,
    "rate_of_population": 4,
    "demand": 94
  },
  {
    "name": "MUKADDES SK.",
    "longitude": "41.069568",
    "latitude": "29.244465",
    "population": 151,
    "rate_of_population": 5,
    "demand": 51
  },
  {
    "name": "NUR SK.",
    "longitude": "41.080485",
    "latitude": "29.258452",
    "population": 291,
    "rate_of_population": 2,
    "demand": 57
  },
  {
    "name": "PAPELİN SK.",
    "longitude": "41.068922",
    "latitude": "29.243387",
    "population": 103,
    "rate_of_population": 1,
    "demand": 21
  },
  {
    "name": "PLATİN ÇK. SK.",
    "longitude": "41.072994",
    "latitude": "29.252398",
    "population": 871,
    "rate_of_population": 4,
    "demand": 82
  },
  {
    "name": "SAFRAN ÇK. SK.",
    "longitude": "41.070472",
    "latitude": "29.255640",
    "population": 172,
    "rate_of_population": 4,
    "demand": 94
  },
  {
    "name": "SEVİM ÇK. SK.",
    "longitude": "41.084550",
    "latitude": "29.251472",
    "population": 965,
    "rate_of_population": 2,
    "demand": 11
  },
  {
    "name": "ŞEHİT MURAT SK.",
    "longitude": "41.076189",
    "latitude": "29.260150",
    "population": 524,
    "rate_of_population": 5,
    "demand": 73
  },
  {
    "name": "ŞİFA SK.",
    "longitude": "41.074578",
    "latitude": "29.248041",
    "population": 611,
    "rate_of_population": 3,
    "demand": 50
  },
  {
    "name": "ŞİMAL ÇK. SK.",
    "longitude": "41.072852",
    "latitude": "29.246424",
    "population": 769,
    "rate_of_population": 4,
    "demand": 86
  },
  {
    "name": "UZUN ÇK. SK.",
    "longitude": "41.081274",
    "latitude": "29.256260",
    "population": 248,
    "rate_of_population": 1,
    "demand": 2
  },
  {
    "name": "YADİGAR SK.",
    "longitude": "41.066305",
    "latitude": "29.248095",
    "population": 470,
    "rate_of_population": 5,
    "demand": 73
  },
  {
    "name": "YAYLA SK.",
    "longitude": "41.069541",
    "latitude": "29.243405",
    "population": 191,
    "rate_of_population": 5,
    "demand": 51
  },
  {
    "name": "YEŞİLAY ÇK. SK.",
    "longitude": "41.087065",
    "latitude": "29.251966",
    "population": 198,
    "rate_of_population": 3,
    "demand": 12
  },
  {
    "name": "YEŞİLVADİ SK.",
    "longitude": "41.077651",
    "latitude": "29.248598",
    "population": 287,
    "rate_of_population": 5,
    "demand": 11
  },
  {
    "name": "ZEMZEM SK.",
    "longitude": "41.082797",
    "latitude": "29.250134",
    "population": 381,
    "rate_of_population": 3,
    "demand": 20
  },
  {
    "name": "ZERDE ÇK. SK.",
    "longitude": "41.083843",
    "latitude": "29.267507",
    "population": 888,
    "rate_of_population": 2,
    "demand": 50
  },
  {
    "name": "ZÜLAL SK.",
    "longitude": "41.068236",
    "latitude": "29.246424",
    "population": 843,
    "rate_of_population": 1,
    "demand": 76
  }
]