{
    "streets_with_bs_status": [
        {
            "street_name": "ALEMDAĞ CD.",
            "latitude": "29.131475",
            "longitude": "41.019199",
            "has_base_station": true
        },
        {
            "street_name": "DOĞANEVLER CD.",
            "latitude": "29.137638",
            "longitude": "41.013484",
            "has_base_station": true
        },
        {
            "street_name": "ESKİ KADIKÖY YOLU CD.",
            "latitude": "29.132104",
            "longitude": "41.017056",
            "has_base_station": true
        },
        {
            "street_name": "KAŞGARLI MAHMUT CD.",
            "latitude": "29.127056",
            "longitude": "41.019941",
            "has_base_station": false
        },
        {
            "street_name": "POYRAZ CD.",
            "latitude": "29.127792",
            "longitude": "41.019383",
            "has_base_station": false
        },
        {
            "street_name": "TAVUKÇUYOLU CD.",
            "latitude": "29.138913",
            "longitude": "41.009980",
            "has_base_station": true
        },
        {
            "street_name": "30 AĞUSTOS SK.",
            "latitude": "29.131430",
            "longitude": "41.018288",
            "has_base_station": true
        },
        {
            "street_name": "AZİM SK.",
            "latitude": "29.137180",
            "longitude": "41.015253",
            "has_base_station": true
        },
        {
            "street_name": "BEGONYA SK.",
            "latitude": "29.136156",
            "longitude": "41.014151",
            "has_base_station": true
        },
        {
            "street_name": "BİZİM SK.",
            "latitude": "29.127352",
            "longitude": "41.019437",
            "has_base_station": false
        },
        {
            "street_name": "ÇAYIRBAŞI SK.",
            "latitude": "29.136551",
            "longitude": "41.015988",
            "has_base_station": true
        },
        {
            "street_name": "ÇEŞME SK.",
            "latitude": "29.134206",
            "longitude": "41.015757",
            "has_base_station": true
        },
        {
            "street_name": "DAMPSAN SK.",
            "latitude": "29.135590",
            "longitude": "41.015035",
            "has_base_station": false
        },
        {
            "street_name": "DİKİLİAĞAÇ SK.",
            "latitude": "29.131987",
            "longitude": "41.014634",
            "has_base_station": true
        },
        {
            "street_name": "DUA SK.",
            "latitude": "29.128466",
            "longitude": "41.018206",
            "has_base_station": true
        },
        {
            "street_name": "EDAGÜL SK.",
            "latitude": "29.129697",
            "longitude": "41.019145",
            "has_base_station": true
        },
        {
            "street_name": "ERDEM SK.",
            "latitude": "29.132922",
            "longitude": "41.016872",
            "has_base_station": true
        },
        {
            "street_name": "ESENKÖŞE SK.",
            "latitude": "29.130236",
            "longitude": "41.018703",
            "has_base_station": true
        },
        {
            "street_name": "FATİH SK.",
            "latitude": "29.133865",
            "longitude": "41.015974",
            "has_base_station": true
        },
        {
            "street_name": "GEZEN SK.",
            "latitude": "29.129598",
            "longitude": "41.019512",
            "has_base_station": true
        },
        {
            "street_name": "GÜNAŞIK SK.",
            "latitude": "29.129742",
            "longitude": "41.018145",
            "has_base_station": false
        },
        {
            "street_name": "GÜVENÇ SK.",
            "latitude": "29.129014",
            "longitude": "41.019090",
            "has_base_station": true
        },
        {
            "street_name": "HACI BAYRAM SK.",
            "latitude": "29.137413",
            "longitude": "41.015750",
            "has_base_station": false
        },
        {
            "street_name": "HAYIRLI SK.",
            "latitude": "29.131098",
            "longitude": "41.015641",
            "has_base_station": false
        },
        {
            "street_name": "HAYRAN SK.",
            "latitude": "29.136488",
            "longitude": "41.014287",
            "has_base_station": true
        },
        {
            "street_name": "HÜRMET SK.",
            "latitude": "29.134664",
            "longitude": "41.015614",
            "has_base_station": false
        },
        {
            "street_name": "İHRAM SK.",
            "latitude": "29.128888",
            "longitude": "41.019329",
            "has_base_station": false
        },
        {
            "street_name": "İNANÇ SK.",
            "latitude": "29.127451",
            "longitude": "41.018798",
            "has_base_station": true
        },
        {
            "street_name": "İSTİKBAL SK.",
            "latitude": "29.136200",
            "longitude": "41.013899",
            "has_base_station": true
        },
        {
            "street_name": "KADİM SK.",
            "latitude": "29.131260",
            "longitude": "41.018927",
            "has_base_station": false
        },
        {
            "street_name": "KAFİYE SK.",
            "latitude": "29.134206",
            "longitude": "41.015757",
            "has_base_station": true
        },
        {
            "street_name": "KANDİL SK.",
            "latitude": "29.127523",
            "longitude": "41.019859",
            "has_base_station": false
        },
        {
            "street_name": "LİDER SK.",
            "latitude": "29.128987",
            "longitude": "41.017873",
            "has_base_station": true
        },
        {
            "street_name": "MANİDAR SK.",
            "latitude": "29.137647",
            "longitude": "41.016267",
            "has_base_station": true
        },
        {
            "street_name": "MEMLEKET SK.",
            "latitude": "29.131386",
            "longitude": "41.017900",
            "has_base_station": false
        },
        {
            "street_name": "MİLLİ MÜCADELE SK.",
            "latitude": "29.131511",
            "longitude": "41.017281",
            "has_base_station": true
        },
        {
            "street_name": "NAKKAŞ SK.",
            "latitude": "29.132302",
            "longitude": "41.014314",
            "has_base_station": true
        },
        {
            "street_name": "NAZENİN SK.",
            "latitude": "29.136668",
            "longitude": "41.013994",
            "has_base_station": true
        },
        {
            "street_name": "ÖNAL SK.",
            "latitude": "29.137162",
            "longitude": "41.013838",
            "has_base_station": true
        },
        {
            "street_name": "ÖRNEK SK.",
            "latitude": "29.133344",
            "longitude": "41.015933",
            "has_base_station": true
        },
        {
            "street_name": "ÖZKANCA SK.",
            "latitude": "29.135922",
            "longitude": "41.013048",
            "has_base_station": true
        },
        {
            "street_name": "ÖZTÜRK SK.",
            "latitude": "29.135626",
            "longitude": "41.015464",
            "has_base_station": true
        },
        {
            "street_name": "PINARBAŞI SK.",
            "latitude": "29.132778",
            "longitude": "41.015947",
            "has_base_station": true
        },
        {
            "street_name": "PINARLI SK.",
            "latitude": "29.131233",
            "longitude": "41.017478",
            "has_base_station": true
        },
        {
            "street_name": "RESUL SK.",
            "latitude": "29.130622",
            "longitude": "41.019261",
            "has_base_station": false
        },
        {
            "street_name": "SEDA SK.",
            "latitude": "29.135688",
            "longitude": "41.014314",
            "has_base_station": false
        },
        {
            "street_name": "TARİH SK.",
            "latitude": "29.129265",
            "longitude": "41.017784",
            "has_base_station": true
        },
        {
            "street_name": "TEPEÜSTÜ ÖZGÜR SK.",
            "latitude": "29.128295",
            "longitude": "41.019240",
            "has_base_station": true
        },
        {
            "street_name": "ULUDERE SK.",
            "latitude": "29.129445",
            "longitude": "41.017240",
            "has_base_station": true
        },
        {
            "street_name": "YALIKENT SK.",
            "latitude": "29.127154",
            "longitude": "41.018961",
            "has_base_station": true
        },
        {
            "street_name": "YENİLİK SK.",
            "latitude": "29.135158",
            "longitude": "41.015546",
            "has_base_station": true
        },
        {
            "street_name": "ZİRVE SK.",
            "latitude": "29.129715",
            "longitude": "41.017553",
            "has_base_station": true
        }
    ]
}