{
    "streets_with_bs_status": [
        {
            "street_name": "BAŞIBÜYÜK CD.",
            "latitude": "29.145723",
            "longitude": "40.956582",
            "has_base_station": true
        },
        {
            "street_name": "EMEK CD.",
            "latitude": "29.164147",
            "longitude": "40.942913",
            "has_base_station": true
        },
        {
            "street_name": "ESER CD.",
            "latitude": "29.150169",
            "longitude": "40.955601",
            "has_base_station": true
        },
        {
            "street_name": "ESKİCİBAĞ CD.",
            "latitude": "29.152685",
            "longitude": "40.958938",
            "has_base_station": false
        },
        {
            "street_name": "GÜRLER CD.",
            "latitude": "29.148795",
            "longitude": "40.957883",
            "has_base_station": true
        },
        {
            "street_name": "KARANFİL CD.",
            "latitude": "29.147340",
            "longitude": "40.954144",
            "has_base_station": true
        },
        {
            "street_name": "MEZARLIK CD.",
            "latitude": "29.144231",
            "longitude": "40.958823",
            "has_base_station": true
        },
        {
            "street_name": "TEKKE CD.",
            "latitude": "29.147393",
            "longitude": "40.960716",
            "has_base_station": true
        },
        {
            "street_name": "TRAFO CD.",
            "latitude": "29.151786",
            "longitude": "40.955792",
            "has_base_station": true
        },
        {
            "street_name": "ACAR SK.",
            "latitude": "29.148400",
            "longitude": "40.957522",
            "has_base_station": false
        },
        {
            "street_name": "AKÇAN SK.",
            "latitude": "29.145525",
            "longitude": "40.958074",
            "has_base_station": false
        },
        {
            "street_name": "ASLANOĞLU SK.",
            "latitude": "29.149945",
            "longitude": "40.956603",
            "has_base_station": true
        },
        {
            "street_name": "AY SK.",
            "latitude": "29.153439",
            "longitude": "40.958516",
            "has_base_station": true
        },
        {
            "street_name": "AYDIN SK.",
            "latitude": "29.154113",
            "longitude": "40.958114",
            "has_base_station": true
        },
        {
            "street_name": "AYGÜL SK.",
            "latitude": "29.152217",
            "longitude": "40.959204",
            "has_base_station": false
        },
        {
            "street_name": "BAHÇE SK.",
            "latitude": "29.144267",
            "longitude": "40.956208",
            "has_base_station": false
        },
        {
            "street_name": "BARAJ SK.",
            "latitude": "29.152011",
            "longitude": "40.952666",
            "has_base_station": false
        },
        {
            "street_name": "BAYIR SK.",
            "latitude": "29.154598",
            "longitude": "40.957903",
            "has_base_station": false
        },
        {
            "street_name": "BEYZADE SK.",
            "latitude": "29.174478",
            "longitude": "40.954873",
            "has_base_station": true
        },
        {
            "street_name": "BUSE SK.",
            "latitude": "29.174217",
            "longitude": "40.955561",
            "has_base_station": true
        },
        {
            "street_name": "CAMİALTI SK.",
            "latitude": "29.146962",
            "longitude": "40.958339",
            "has_base_station": false
        },
        {
            "street_name": "ÇAKIR SK.",
            "latitude": "29.155999",
            "longitude": "40.959388",
            "has_base_station": false
        },
        {
            "street_name": "ÇALIKUŞU SK.",
            "latitude": "29.149774",
            "longitude": "40.954737",
            "has_base_station": true
        },
        {
            "street_name": "ÇAMLIK SK.",
            "latitude": "29.146630",
            "longitude": "40.954382",
            "has_base_station": true
        },
        {
            "street_name": "ÇİĞDEM SK.",
            "latitude": "29.145040",
            "longitude": "40.961744",
            "has_base_station": true
        },
        {
            "street_name": "DAĞLAR SK.",
            "latitude": "29.147070",
            "longitude": "40.956398",
            "has_base_station": true
        },
        {
            "street_name": "DİK SK.",
            "latitude": "29.152397",
            "longitude": "40.958353",
            "has_base_station": true
        },
        {
            "street_name": "DÜŞ SK.",
            "latitude": "29.154319",
            "longitude": "40.955302",
            "has_base_station": true
        },
        {
            "street_name": "ELİF SK.",
            "latitude": "29.145588",
            "longitude": "40.960307",
            "has_base_station": true
        },
        {
            "street_name": "ENGİN SK.",
            "latitude": "29.150035",
            "longitude": "40.957583",
            "has_base_station": true
        },
        {
            "street_name": "EREN SK.",
            "latitude": "29.150169",
            "longitude": "40.955601",
            "has_base_station": false
        },
        {
            "street_name": "ERİK SK.",
            "latitude": "29.145768",
            "longitude": "40.957079",
            "has_base_station": false
        },
        {
            "street_name": "ERKAM SK.",
            "latitude": "29.150277",
            "longitude": "40.959218",
            "has_base_station": true
        },
        {
            "street_name": "ERKAN SK.",
            "latitude": "29.151463",
            "longitude": "40.957753",
            "has_base_station": false
        },
        {
            "street_name": "FAL SK.",
            "latitude": "29.170256",
            "longitude": "40.954042",
            "has_base_station": true
        },
        {
            "street_name": "FIRIN SK.",
            "latitude": "29.145552",
            "longitude": "40.954464",
            "has_base_station": false
        },
        {
            "street_name": "FİDAN SK.",
            "latitude": "29.143935",
            "longitude": "40.956548",
            "has_base_station": true
        },
        {
            "street_name": "FİLİZ SK.",
            "latitude": "29.144519",
            "longitude": "40.956412",
            "has_base_station": false
        },
        {
            "street_name": "GAZEL SK.",
            "latitude": "29.145588",
            "longitude": "40.960307",
            "has_base_station": true
        },
        {
            "street_name": "GÖKSEL SK.",
            "latitude": "29.147627",
            "longitude": "40.957086",
            "has_base_station": true
        },
        {
            "street_name": "GÖZDE SK.",
            "latitude": "29.144950",
            "longitude": "40.959885",
            "has_base_station": true
        },
        {
            "street_name": "GÜL SK.",
            "latitude": "29.150789",
            "longitude": "40.956929",
            "has_base_station": false
        },
        {
            "street_name": "GÜNER SK.",
            "latitude": "29.151202",
            "longitude": "40.957604",
            "has_base_station": true
        },
        {
            "street_name": "GÜNEŞ SK.",
            "latitude": "29.151598",
            "longitude": "40.956773",
            "has_base_station": true
        },
        {
            "street_name": "HACİVAT SK.",
            "latitude": "29.154454",
            "longitude": "40.957038",
            "has_base_station": true
        },
        {
            "street_name": "HALİT BEY SK.",
            "latitude": "29.146630",
            "longitude": "40.954382",
            "has_base_station": false
        },
        {
            "street_name": "HANDAN SK.",
            "latitude": "29.172654",
            "longitude": "40.960130",
            "has_base_station": true
        },
        {
            "street_name": "HASTANE ARKASI SK.",
            "latitude": "29.143953",
            "longitude": "40.953470",
            "has_base_station": true
        },
        {
            "street_name": "HERCAİ SK.",
            "latitude": "29.172430",
            "longitude": "40.955343",
            "has_base_station": true
        },
        {
            "street_name": "HİLAL SK.",
            "latitude": "29.170256",
            "longitude": "40.954042",
            "has_base_station": true
        },
        {
            "street_name": "KARAMAN SK.",
            "latitude": "29.145983",
            "longitude": "40.953872",
            "has_base_station": true
        },
        {
            "street_name": "KARTAL SK.",
            "latitude": "29.146055",
            "longitude": "40.961710",
            "has_base_station": true
        },
        {
            "street_name": "KAYA SK.",
            "latitude": "29.147241",
            "longitude": "40.956855",
            "has_base_station": true
        },
        {
            "street_name": "KAYSUK SK.",
            "latitude": "29.147034",
            "longitude": "40.957038",
            "has_base_station": false
        },
        {
            "street_name": "KEHRİBAR SK.",
            "latitude": "29.144276",
            "longitude": "40.955806",
            "has_base_station": true
        },
        {
            "street_name": "KESKİNLER SK.",
            "latitude": "29.150511",
            "longitude": "40.958938",
            "has_base_station": true
        },
        {
            "street_name": "KETEN SK.",
            "latitude": "29.169537",
            "longitude": "40.955949",
            "has_base_station": true
        },
        {
            "street_name": "KILIÇ SK.",
            "latitude": "29.152577",
            "longitude": "40.958475",
            "has_base_station": true
        },
        {
            "street_name": "KORKMAZ SK.",
            "latitude": "29.153601",
            "longitude": "40.953729",
            "has_base_station": false
        },
        {
            "street_name": "KUZGUN SK.",
            "latitude": "29.171432",
            "longitude": "40.953817",
            "has_base_station": false
        },
        {
            "street_name": "LALE SK.",
            "latitude": "29.144941",
            "longitude": "40.956487",
            "has_base_station": true
        },
        {
            "street_name": "MADEN SK.",
            "latitude": "29.151454",
            "longitude": "40.959129",
            "has_base_station": false
        },
        {
            "street_name": "MAĞARA TEPE SK.",
            "latitude": "29.153277",
            "longitude": "40.955261",
            "has_base_station": true
        },
        {
            "street_name": "MANOLYA SK.",
            "latitude": "29.151454",
            "longitude": "40.959129",
            "has_base_station": false
        },
        {
            "street_name": "MELİKOĞLU SK.",
            "latitude": "29.143926",
            "longitude": "40.955418",
            "has_base_station": true
        },
        {
            "street_name": "MENEKŞE ÇK. SK.",
            "latitude": "29.151364",
            "longitude": "40.953483",
            "has_base_station": false
        },
        {
            "street_name": "MENEKŞE SK.",
            "latitude": "29.152217",
            "longitude": "40.959204",
            "has_base_station": false
        },
        {
            "street_name": "MERVE SK.",
            "latitude": "29.156700",
            "longitude": "40.957045",
            "has_base_station": false
        },
        {
            "street_name": "MUZAFFER SK.",
            "latitude": "29.154544",
            "longitude": "40.955738",
            "has_base_station": true
        },
        {
            "street_name": "NİL SK.",
            "latitude": "29.148714",
            "longitude": "40.952373",
            "has_base_station": false
        },
        {
            "street_name": "OKUL SK.",
            "latitude": "29.122968",
            "longitude": "40.967627",
            "has_base_station": false
        },
        {
            "street_name": "ORMAN SK.",
            "latitude": "29.147861",
            "longitude": "40.961254",
            "has_base_station": true
        },
        {
            "street_name": "ÖZEN SK.",
            "latitude": "29.156475",
            "longitude": "40.959585",
            "has_base_station": true
        },
        {
            "street_name": "ÖZTÜRK SK.",
            "latitude": "29.146109",
            "longitude": "40.960695",
            "has_base_station": true
        },
        {
            "street_name": "PAMUK SK.",
            "latitude": "29.153358",
            "longitude": "40.954103",
            "has_base_station": true
        },
        {
            "street_name": "PAPATYA SK.",
            "latitude": "29.145426",
            "longitude": "40.959354",
            "has_base_station": false
        },
        {
            "street_name": "REÇİNE SK.",
            "latitude": "29.142740",
            "longitude": "40.959402",
            "has_base_station": true
        },
        {
            "street_name": "SELVİ SK.",
            "latitude": "29.148939",
            "longitude": "40.958223",
            "has_base_station": false
        },
        {
            "street_name": "SERHAT SK.",
            "latitude": "29.152846",
            "longitude": "40.957685",
            "has_base_station": true
        },
        {
            "street_name": "SERİN SK.",
            "latitude": "29.150978",
            "longitude": "40.955860",
            "has_base_station": true
        },
        {
            "street_name": "SEZENLİK SK.",
            "latitude": "29.145022",
            "longitude": "40.954471",
            "has_base_station": true
        },
        {
            "street_name": "SULTAN SK.",
            "latitude": "29.170606",
            "longitude": "40.953742",
            "has_base_station": false
        },
        {
            "street_name": "ŞEN SK.",
            "latitude": "29.153161",
            "longitude": "40.959313",
            "has_base_station": false
        },
        {
            "street_name": "TAN SK.",
            "latitude": "29.145435",
            "longitude": "40.956827",
            "has_base_station": false
        },
        {
            "street_name": "TAŞLIK SK.",
            "latitude": "29.150331",
            "longitude": "40.952898",
            "has_base_station": true
        },
        {
            "street_name": "TAŞOCAĞI SK.",
            "latitude": "29.150331",
            "longitude": "40.952898",
            "has_base_station": true
        },
        {
            "street_name": "TEKKE DERESİ SK.",
            "latitude": "29.145866",
            "longitude": "40.960130",
            "has_base_station": true
        },
        {
            "street_name": "TOPRAK YOL SK.",
            "latitude": "29.145723",
            "longitude": "40.954566",
            "has_base_station": true
        },
        {
            "street_name": "TURGUT SK.",
            "latitude": "29.146881",
            "longitude": "40.961029",
            "has_base_station": false
        },
        {
            "street_name": "VEYSEL SK.",
            "latitude": "29.149981",
            "longitude": "40.954239",
            "has_base_station": true
        },
        {
            "street_name": "YARICI SK.",
            "latitude": "29.153161",
            "longitude": "40.953204",
            "has_base_station": false
        },
        {
            "street_name": "YAZGAN SK.",
            "latitude": "29.147322",
            "longitude": "40.961513",
            "has_base_station": false
        },
        {
            "street_name": "YENİ CAMİ SK.",
            "latitude": "29.146307",
            "longitude": "40.955847",
            "has_base_station": false
        },
        {
            "street_name": "YILDIZ SK.",
            "latitude": "29.145812",
            "longitude": "40.960525",
            "has_base_station": true
        },
        {
            "street_name": "YILMAZ SK.",
            "latitude": "29.144492",
            "longitude": "40.954525",
            "has_base_station": true
        },
        {
            "street_name": "YONCA SK.",
            "latitude": "29.144663",
            "longitude": "40.956650",
            "has_base_station": false
        },
        {
            "street_name": "ZİRVE SK.",
            "latitude": "29.154643",
            "longitude": "40.955097",
            "has_base_station": true
        }
    ]
}